{"type":"FeatureCollection","features":[
{"type":"Feature","geometry":{"type":"Point","coordinates":[-78.5796079,35.903344]},"properties":{"Community":"Abbotts Creek","MondayFri":"7am - 9pm","SatSun":"9am - 3pm/1pm - 6pm","Address":"9950 Durant Road","City":"Raleigh","State":"NC","Zip":"27614","Link":"http://www.raleighnc.gov/parks/content/ParksRec/Articles/Parks/AbbottsCreek.html","addrtype":"street_address","addrlocat":"ROOFTOP"}},
{"type":"Feature","geometry":{"type":"Point","coordinates":[-78.5516561,35.7310576]},"properties":{"Community":"Barwell Road","MondayFri":"7am - 9pm","SatSun":"9am - 3pm/1pm - 6pm","Address":"5857 Barwell Park Drive","City":"Raleigh","State":"NC","Zip":"27610","Link":"http://www.raleighnc.gov/parks/content/ParksRec/Articles/Parks/BarwellRoad.html","addrtype":"street_address","addrlocat":"ROOFTOP"}},
{"type":"Feature","geometry":{"type":"Point","coordinates":[-78.628158,35.7461995]},"properties":{"Community":"Biltmore Hills","MondayFri":"10am - 9pm","SatSun":"9am - 3pm/1pm - 6pm","Address":"2615 Fitzgerald Drive","City":"Raleigh","State":"NC","Zip":"27610","Link":"http://www.raleighnc.gov/parks/content/ParksRec/Articles/Parks/BiltmoreHills.html","addrtype":"street_address","addrlocat":"ROOFTOP"}},
{"type":"Feature","geometry":{"type":"Point","coordinates":[-78.8042668,35.9006262]},"properties":{"Community":"Brier Creek","MondayFri":"7am - 9pm","SatSun":"9am - 3pm/1pm - 6pm","Address":"10810 Globe Road","City":"Raleigh","State":"NC","Zip":"27617","Link":"http://www.raleighnc.gov/parks/content/ParksRec/Articles/Parks/BrierCreek.html","addrtype":"street_address","addrlocat":"ROOFTOP"}},
{"type":"Feature","geometry":{"type":"Point","coordinates":[-78.6686109,35.7492086]},"properties":{"Community":"Carolina Pines","MondayFri":"10am - 9pm","SatSun":"9am - 3pm/1pm - 6pm","Address":"2305 Lake Wheeler Road","City":"Raleigh","State":"NC","Zip":"27603","Link":"http://www.raleighnc.gov/parks/content/ParksRec/Articles/Parks/CarolinaPines.html","addrtype":"street_address","addrlocat":"ROOFTOP"}},
{"type":"Feature","geometry":{"type":"Point","coordinates":[-78.6289809,35.7694406]},"properties":{"Community":"John Chavis Memorial","MondayFri":"10am - 9pm","SatSun":"9am - 6pm/1pm - 6pm","Address":"505 MLK Jr. Blvd","City":"Raleigh","State":"NC","Zip":"27601","Link":"http://www.raleighnc.gov/parks/content/ParksRec/Articles/Parks/Chavis.html","addrtype":"premise","addrlocat":"ROOFTOP"}},
{"type":"Feature","geometry":{"type":"Point","coordinates":[-78.6356531,35.8084545]},"properties":{"Community":"Five Points Center for Active Adults","MondayFri":"9am - 6pm","SatSun":"Closed/Closed","Address":"2000 Noble Road","City":"Raleigh","State":"NC","Zip":"27608","Link":"http://www.raleighnc.gov/parks/content/ParksRec/Articles/Parks/FivePoints.html","addrtype":"premise","addrlocat":"ROOFTOP"}},
{"type":"Feature","geometry":{"type":"Point","coordinates":[-78.5911285,35.8411275]},"properties":{"Community":"Green Road","MondayFri":"10am - 9pm","SatSun":"9am - 3pm/1pm- 6pm","Address":"4201 Green Road","City":"Raleigh","State":"NC","Zip":"27604","Link":"http://www.raleighnc.gov/parks/content/ParksRec/Articles/Parks/GreenRoad.html","addrtype":"street_address","addrlocat":"ROOFTOP"}},
{"type":"Feature","geometry":{"type":"Point","coordinates":[-78.638867,35.793097]},"properties":{"Community":"Halifax","MondayFri":"10am - 9pm","SatSun":"9am - 3pm/1pm- 6pm","Address":"1023 Halifax St","City":"Raleigh","State":"NC","Zip":"27604","Link":"http://www.raleighnc.gov/parks/content/ParksRec/Articles/Parks/Halifax.html","addrtype":"street_address","addrlocat":"ROOFTOP"}},
{"type":"Feature","geometry":{"type":"Point","coordinates":[-78.6636652,35.7998357]},"properties":{"Community":"Jaycee","MondayFri":"10am - 9pm","SatSun":"9am - 3pm/1pm- 6pm","Address":"2405 Wade Ave","City":"Raleigh","State":"NC","Zip":"27607","Link":"http://www.raleighnc.gov/parks/content/ParksRec/Articles/Parks/Halifax.html","addrtype":"street_address","addrlocat":"ROOFTOP"}},
{"type":"Feature","geometry":{"type":"Point","coordinates":[-78.6991668,35.8874963]},"properties":{"Community":"Lake Lynn","MondayFri":"10am - 9pm","SatSun":"9am - 3pm/1pm- 6pm","Address":"7921 Ray Road","City":"Raleigh","State":"NC","Zip":"27613","Link":"http://www.raleighnc.gov/parks/content/ParksRec/Articles/Parks/LakeLynn.html","addrtype":"premise","addrlocat":"ROOFTOP"}},
{"type":"Feature","geometry":{"type":"Point","coordinates":[-78.697331,35.829849]},"properties":{"Community":"Laurel Hills","MondayFri":"10am - 9pm","SatSun":"9am - 3pm/1pm- 6pm","Address":"3808 Edwards Mill Road","City":"Raleigh","State":"NC","Zip":"27612","Link":"http://www.raleighnc.gov/parks/content/ParksRec/Articles/Parks/LaurelHills.html","addrtype":"street_address","addrlocat":"ROOFTOP"}},
{"type":"Feature","geometry":{"type":"Point","coordinates":[-78.6140216,35.7972836]},"properties":{"Community":"Lions Park","MondayFri":"10am - 9pm","SatSun":"9am - 3pm/1pm- 6pm","Address":"516 Dennis Ave","City":"Raleigh","State":"NC","Zip":"27604","Link":"http://www.raleighnc.gov/parks/content/ParksRec/Articles/Parks/Lions.html","addrtype":"street_address","addrlocat":"ROOFTOP"}},
{"type":"Feature","geometry":{"type":"Point","coordinates":[-78.5641427,35.8243092]},"properties":{"Community":"Marsh Creek","MondayFri":"7am - 9pm","SatSun":"9am - 3pm/1pm- 6pm","Address":"3050 New Hope Road","City":"Raleigh","State":"NC","Zip":"27604","Link":"http://www.raleighnc.gov/parks/content/ParksRec/Articles/Parks/MarshCreek.html","addrtype":"street_address","addrlocat":"ROOFTOP"}},
{"type":"Feature","geometry":{"type":"Point","coordinates":[-78.6944594,35.7927775]},"properties":{"Community":"Method Community","MondayFri":"10am - 9pm","SatSun":"9am - 3pm/1pm- 6pm","Address":"514 Method Road","City":"Raleigh","State":"NC","Zip":"27607","Link":"http://www.raleighnc.gov/parks/content/ParksRec/Articles/Parks/Method.html","addrtype":"street_address","addrlocat":"ROOFTOP"}},
{"type":"Feature","geometry":{"type":"Point","coordinates":[-78.6030759,35.8695516]},"properties":{"Community":"Millbrook Exchange","MondayFri":"10am - 9pm","SatSun":"9am - 3pm/1pm- 6pm","Address":"1905 Spring Forest Road","City":"Raleigh","State":"NC","Zip":"27615","Link":"http://www.raleighnc.gov/parks/content/ParksRec/Articles/Parks/Millbrook.html","addrtype":"street_address","addrlocat":"ROOFTOP"}},
{"type":"Feature","geometry":{"type":"Point","coordinates":[-78.6609854,35.780651]},"properties":{"Community":"Pullen","MondayFri":"10am - 9pm","SatSun":"9am - 3pm/Closed","Address":"408 Ashe Ave","City":"Raleigh","State":"NC","Zip":"27606","Link":"http://www.raleighnc.gov/parks/content/ParksRec/Articles/Parks/Pullen.html","addrtype":"street_address","addrlocat":"ROOFTOP"}},
{"type":"Feature","geometry":{"type":"Point","coordinates":[-78.618301,35.775519]},"properties":{"Community":"Roberts","MondayFri":"10am - 9pm","SatSun":"9am - 3pm/1pm - 6pm","Address":"1300 E. Martin St","City":"Raleigh","State":"NC","Zip":"27610","Link":"http://www.raleighnc.gov/parks/content/ParksRec/Articles/Parks/Roberts.html","addrtype":"street_address","addrlocat":"ROOFTOP"}},
{"type":"Feature","geometry":{"type":"Point","coordinates":[-78.6227325,35.7814334]},"properties":{"Community":"Tarboro Road","MondayFri":"10am - 9pm","SatSun":"9am - 3pm/1pm - 6pm","Address":"121 N. Tarboro St","City":"Raleigh","State":"NC","Zip":"27610","Link":"http://www.raleighnc.gov/parks/content/ParksRec/Articles/Parks/TarboroRoad.html","addrtype":"street_address","addrlocat":"ROOFTOP"}},
{"type":"Feature","geometry":{"type":"Point","coordinates":[-78.5870697,35.7633774]},"properties":{"Community":"Worthdale","MondayFri":"10am - 9pm","SatSun":"9am - 3pm/1pm - 6pm","Address":"1001 Cooper Road","City":"Raleigh","State":"NC","Zip":"27610","Link":"http://www.raleighnc.gov/parks/content/ParksRec/Articles/Parks/Worthdale.html","addrtype":"street_address","addrlocat":"ROOFTOP"}}
]}
